{
  "substations": [
    {
      "name": "monktonhall",
      "display_name": "Monkton Hall",
      "coordinates": {
        "lat": 55.1234,
        "lng": -1.5678
      },
      "metadata": {
        "voltage_level": "33/11kV",
        "region": "Northeast",
        "capacity_mw": 32.5,
        "transformer_count": 2,
        "demand_group": "northeast_group_1"
      },
      "icon": {
        "color": "#00A443",
        "size": "medium"
      }
    },
    {
      "name": "substation_1",
      "display_name": "Substation 1",
      "coordinates": {
        "lat": 54.9876,
        "lng": -1.2345
      },
      "metadata": {
        "voltage_level": "33/11kV",
        "region": "Northeast",
        "capacity_mw": 24.0,
        "transformer_count": 1,
        "demand_group": "northeast_group_1"
      },
      "icon": {
        "color": "#00A443",
        "size": "medium"
      }
    },
    {
      "name": "substation_2",
      "display_name": "Substation 2",
      "coordinates": {
        "lat": 55.0123,
        "lng": -1.3456
      },
      "metadata": {
        "voltage_level": "132/33kV",
        "region": "Northeast",
        "capacity_mw": 60.0,
        "transformer_count": 3,
        "demand_group": "northeast_group_2"
      },
      "icon": {
        "color": "#0DA9FF",
        "size": "large"
      }
    }
  ],
  "demand_groups": [
    {
      "id": "northeast_group_1",
      "name": "Northeast Group 1",
      "polygon": {
        "color": "#00A443",
        "fillColor": "#00A44333",
        "weight": 2,
        "points": [
          {"lat": 55.0000, "lng": -1.5000},
          {"lat": 55.1500, "lng": -1.4800},
          {"lat": 55.1700, "lng": -1.6200},
          {"lat": 55.0200, "lng": -1.7000},
          {"lat": 55.0000, "lng": -1.5000}
        ]
      },
      "metadata": {
        "firm_capacity_mw": 56.5,
        "total_energy_mwh": 1240.6,
        "energy_above_capacity_mwh": 25.8,
        "substation_count": 2,
        "substations": ["monktonhall", "substation_1"],
        "peak_demand_time": "2025-01-15T18:30:00Z"
      }
    },
    {
      "id": "northeast_group_2",
      "name": "Northeast Group 2",
      "polygon": {
        "color": "#0DA9FF",
        "fillColor": "#0DA9FF33",
        "weight": 2,
        "points": [
          {"lat": 54.9800, "lng": -1.3000},
          {"lat": 55.0500, "lng": -1.2500},
          {"lat": 55.0700, "lng": -1.4000},
          {"lat": 54.9900, "lng": -1.4200},
          {"lat": 54.9800, "lng": -1.3000}
        ]
      },
      "metadata": {
        "firm_capacity_mw": 45.2,
        "total_energy_mwh": 980.3,
        "energy_above_capacity_mwh": 18.6,
        "substation_count": 1,
        "substations": ["substation_2"],
        "peak_demand_time": "2025-01-16T17:45:00Z"
      }
    }
  ],
  "layers": [
    {
      "id": "substations",
      "name": "Substations",
      "type": "marker",
      "visible": true,
      "source": "substations"
    },
    {
      "id": "demand_groups",
      "name": "Demand Groups",
      "type": "polygon",
      "visible": true,
      "source": "demand_groups"
    }
  ],
  "map_defaults": {
    "center": {
      "lat": 55.0500,
      "lng": -1.4500
    },
    "zoom": 10,
    "max_zoom": 18,
    "min_zoom": 6
  }
}